,name,start_station_id,longitude,latitude,cell,capacity
0,7 JUNI PLASSEN,623,10.7312715000007,59.9150596000215,0,21
1,ADAMSTUEN,425,10.7344570000015,59.9327920000064,1,8
2,AHO,444,10.7504620000093,59.9252650000167,2,20
3,AKER BRYGGE,1755,10.730034556851,59.9111837218747,0,32
4,AKERSELVALLMENNINGEN,2333,10.75488466359,59.9072588989031,3,15
5,AKERSGATA,557,10.7428827999977,59.9141970999995,4,21
6,ALEXANDER KIELLANDS PLASS,421,10.7512752722765,59.9280634526166,2,24
7,ANKER HOSTEL,500,10.7581553000023,59.917279400006,5,12
8,ANKER HOTEL,500,10.7581553000023,59.9172794000054,5,12
9,ANNETTE THOMMESSENS PLASS,574,10.7609997999976,59.910739299999,6,12
10,ARENDALSGATA,472,10.754099999998,59.9377999999807,7,24
11,ARKADEN NORD,577,10.7480527000006,59.9121472000078,8,30
12,ARKADEN SØR,545,10.7478583000004,59.9119691000057,8,39
13,ARKITEKT RIVERTZ PLASS,383,10.7494660000037,59.9349360000207,7,29
14,BADEBAKKEN,592,10.7603597845137,59.9455836975928,9,18
15,BAK NIELS TRESCHOWS HUS NORD,619,10.7230167987641,59.9427714212947,10,42
16,BAK NIELS TRESCHOWS HUS SØR,618,10.7237705634694,59.9424607286157,10,42
17,BANKPLASSEN,611,10.7418689999969,59.9084540000139,4,39
18,BENTSEBRUGATA,380,10.7591699999983,59.9392299999667,9,24
19,BERNT ANKERS GATE,538,10.7537067999987,59.9147887000013,11,22
20,BI NYDALEN,438,10.768576000002,59.9492389999827,9,41
21,BIRKELUNDEN,424,10.7609260000058,59.9256112999612,12,9
22,BISKOP GUNNERUS' GATE,527,10.7522919999974,59.9123341000066,11,12
23,BISLETT STADION,446,10.7312462979271,59.9254786554321,13,24
24,BISLETTGATA,620,10.7346900610965,59.9237923721781,14,40
25,BJERREGAARDS GATE,499,10.7460580000048,59.9254879999959,15,21
26,BJERREGAARDSGATE ØST,617,10.7497639270662,59.9271864891458,2,15
27,BJØLSEN MØLLE,593,10.7687723949239,59.9392241203381,16,30
28,BJØLSEN STUDENTBY,394,10.7601873072228,59.9437676916254,9,21
29,BJØLSENDUMPA,420,10.7661221162653,59.9403319638932,16,21
30,BJØRVIKA,465,10.756180000007,59.9090060000205,3,30
31,BLINDERN STUDENTHUS,486,10.7264765941988,59.9352211456172,17,24
32,BLINDERN STUDENTPARKERING,474,10.7208118973946,59.940905236561,10,42
33,BOGSTADVEIEN,579,10.724627999997,59.9247320000589,18,18
34,BORGENVEIEN,1009,10.7038330312546,59.9427421064753,19,10
35,BOTANISK HAGE SØR,460,10.7694421326901,59.9153652353205,20,29
36,BOTANISK HAGE SØR VEST,569,10.7663359758933,59.9178191656622,21,30
37,BOTANISK HAGE VEST,506,10.7689538059769,59.9201010419518,22,27
38,BRISKEBY,427,10.7179780000006,59.9202179999767,23,15
39,BRUGATA,491,10.7572967583767,59.913659276005,5,18
40,BRYN T BANE,532,10.8141990000003,59.909237999997,24,21
41,BRYNSENG T BANE,532,10.8143002272929,59.9091907883803,24,21
42,BYGDØY ALLÉ,746,10.6923209999984,59.9190010000019,25,12
43,BØKKERVEIEN,513,10.7960146999988,59.9273747000086,26,15
44,CARL BERNERS PLASS NORD,487,10.7769709999994,59.9269290000055,27,21
45,CARL BERNERS PLASS SØR,406,10.7759959999994,59.925070000049,27,12
46,CHR MICHELSENS GATE,431,10.7731849999983,59.9272920000194,27,20
47,COLBJØRNSENS GATE,548,10.7168704946583,59.9173100587514,23,18
48,COLLETTS GATE,608,10.7463049645653,59.9307017313383,15,21
49,COLOSSEUM KINO,378,10.7113752834554,59.9298469343412,28,12
50,DET TEOLOGISKE FAKULTET,486,10.7264719999996,59.9353419999892,17,24
51,DIAKONHJEMMET,536,10.7054332999989,59.9363276999924,19,15
52,DOKKVEIEN,558,10.7277000999942,59.9109740000458,0,15
53,DOMUS ATHLETICA,2307,10.7246263146539,59.9462193817599,10,30
54,DRAMMENSVEIEN,626,10.6911470000014,59.9204037999862,25,24
55,DRONNINGENS GATE,576,10.7472931028717,59.9113897875798,8,18
56,DYVEKES BRU,600,10.7689578999998,59.9053230000025,29,12
57,DÆLENENGGATA,624,10.7675517756097,59.9287382758673,30,20
58,EDVARD STORMS GATE,476,10.7361789999996,59.919110999978,14,20
59,ELGSLETTA,2339,10.7617245025483,59.9156492088084,6,29
60,ELISENBERG,450,10.7088400000024,59.9195240000216,25,15
61,ENERHAUGEN,970,10.7675793864067,59.9132024256273,20,25
62,ENSJØ T BANE,512,10.7897604999962,59.9131891000165,24,30
63,ENSJØVEIEN,612,10.7833272661591,59.9166495713429,31,19
64,FAGERHEIMGATA,503,10.7658879432728,59.9275487653174,30,33
65,FILIPSTADVEIEN,534,10.7208788000001,59.9102276999798,32,38
66,FINNMARKSGATA,516,10.7756579999988,59.9228390000056,22,15
67,FORSKNINGSVEIEN,567,10.7138620390001,59.9454580442176,10,39
68,FRAM GÅRDEN,435,10.7145770000045,59.9154240000059,23,30
69,FRED OLSENS GATE,609,10.7493737000023,59.9110505999997,33,27
70,FREDENSBORG,597,10.7503579999945,59.9209950000364,34,15
71,FRIGGFELTET,529,10.7114660999989,59.9327725999894,28,21
72,FROGNER PLASS,603,10.7045406000062,59.9225391999824,25,18
73,FROGNER STADION,453,10.7101667015616,59.9275620496256,35,36
74,FROGNER TENNISKLUBB,395,10.7098326999989,59.9261830999926,35,22
75,FROGNERBADET,405,10.7087670000011,59.9280799999909,35,18
76,FROGNERSTRANDA,456,10.7051061000044,59.9103558000119,25,35
77,FROGNERVEIEN,568,10.7128796000028,59.917085099987,23,15
78,FRØEN T BANE,570,10.7096985000009,59.9347352000025,19,15
79,FURULUND,454,10.651118000001,59.9198097999964,36,24
80,FYRSTIKKTORGET,543,10.7980992086064,59.9138204363217,24,20
81,FYSIKKBYGNINGEN,496,10.719525145053,59.9379515512394,10,45
82,GALGEBERG,583,10.7791785586515,59.9070833078296,37,18
83,GAUSTAD T BANE,560,10.7103920000006,59.9459550000023,19,9
84,GEORG MORGENSTIERNES HUS,580,10.7229752476517,59.9390296139831,10,45
85,GIMLE KINO,426,10.708361586219,59.9172503551261,25,21
86,GOETHE INSTITUT,492,10.7607798,59.913179199998,6,22
87,GRENSEVEIEN,591,10.7816711328007,59.9246357204986,27,24
88,GRIFFENFELDTS GATE,555,10.7519298999985,59.933702599995,7,15
89,GRØNLANDS TORG,381,10.7622400000057,59.9125200000116,6,14
90,GRÜNERHAGEN NORD,542,10.7554273999995,59.9224256000016,34,20
91,GUNERIUS,2308,10.7534057555493,59.9146084536996,11,12
92,HALLINGS GATE,578,10.7386549999953,59.9227770000401,38,24
93,HALLÉNPARKEN,744,10.762168999996,59.9315301999671,12,10
94,HAMMERSBORG TORG,739,10.7491830115875,59.916527925273,11,20
95,HANS NIELSEN HAUGES PLASS,393,10.7743189999953,59.9392440000073,16,21
96,HASLE,742,10.7928499999986,59.9243420000122,39,30
97,HASLE TORG,411,10.7928471876248,59.9232358879195,39,24
98,HASLELINJE,498,10.7992319926594,59.9276364999732,26,18
99,HAUSMANNS BRU,475,10.759871899997,59.9146509000243,6,24
100,HAUSMANNS GATE,483,10.7583279999981,59.9154509999847,5,21
101,HEDMARKSGATA,2304,10.7838843459586,59.9117840365526,31,18
102,HELGA HELGESENS PLASS,480,10.7661939000136,59.912110900034,20,25
103,HENRIK IBSENS GATE,511,10.7222802999945,59.915088000008,32,24
104,HENRIK WERGELANDS ALLÉ,584,10.7207894000013,59.926894199996,18,35
105,HESSELBERGS GATE,2305,10.7612657713907,59.9277480311053,12,15
106,HIOA,400,10.735428,59.9199269999943,14,25
107,HOFF TERRASSE HOLDEPLASS,566,10.6755714000014,59.9272940999955,36,22
108,HOFFSVEIEN,559,10.6760339000022,59.9238980000071,36,18
109,HOLBERGS PLASS,530,10.7343050999972,59.9193094999849,14,10
110,HUITFELDTS GATE,563,10.7229002999968,59.9126844000361,32,18
111,HUK,589,10.6750959999987,59.8981260000106,40,27
112,HUK 1,589,10.6744039503232,59.8985322172412,40,27
113,HUK 2,2347,10.6743984610258,59.8984342824591,40,29
114,HYDROPARKEN,748,10.7155050000001,59.9141450000185,23,30
115,IDIOTEN,596,10.7360241776107,59.9310427715217,1,18
116,ILA,433,10.748744999998,59.9318280000003,2,18
117,JAKOB KIRKE,412,10.7548979999958,59.9178659999769,5,9
118,JARLSBORGVEIEN,602,10.6757833000005,59.930464500002,36,18
119,JENNY BRAATENS PLASS,458,10.7783700000065,59.9283490000059,27,15
120,JENS BJELKES GATE,507,10.764158452337,59.9191755449107,21,20
121,JERNBANETORGET,478,10.7499289999999,59.9119009999645,33,15
122,JESS CARLSENS GATE,521,10.7523939000057,59.9186358999748,34,14
123,JOHN COLLETTS PLASS,409,10.7300359999966,59.9403979999828,17,25
124,JORDALGATA,581,10.7810879999959,59.9082269999906,37,24
125,KAMPEN PARK ØST,594,10.7821289999993,59.9151820000171,31,21
126,KARENLYST ALLÉ,484,10.6838139999957,59.9203300000297,36,34
127,KARENSLYST ALLÉ,484,10.683814000001,59.9203299999954,36,34
128,KIRKEGATA 15,787,10.7434569715115,59.9101561505744,4,12
129,KIRKERISTEN,396,10.7467315341782,59.9130119095512,8,24
130,KIRKEVEIEN,561,10.7263231993417,59.9334970197034,17,24
131,KJELD STUBS GATE,509,10.7355950000012,59.9127110000042,41,12
132,KLINGENBERGGATA,2280,10.7322812916998,59.9131505340701,0,15
133,KONTRASKJÆRET,414,10.7385699999945,59.9102419999846,41,12
134,KREBS' GATE,501,10.7654129999983,59.9359949999829,16,18
135,KROHGSTØTTEN HOSPITAL,2332,10.7573766668429,59.9162960107562,5,12
136,KVÆRNERBYEN,447,10.7861670000084,59.9044729999946,24,30
137,KVÆRNERVEIEN,1919,10.7785921322961,59.905910834884,37,6
138,KØBENHAVNGATA BUSSTOPP,586,10.7691312541082,59.9294628076473,30,27
139,LAKKEGATA,440,10.7622134999986,59.917208800039,21,17
140,LANDSTADS GATE,410,10.7496754999943,59.9290050000297,2,27
141,LANGKAIA,541,10.7479977000013,59.9080552000068,33,12
142,LEGEVAKTEN,2332,10.7573766668428,59.9162960107558,5,12
143,LILLE GRENSEN,526,10.7423101000019,59.9138972999728,4,15
144,LILLE SCHOUS PLASS,401,10.7606289999987,59.9202589999991,21,6
145,LILLEBORGBANEN,540,10.7691102335716,59.9336628392445,16,36
146,LINAAES GATE,549,10.7457035414085,59.9138267621783,8,21
147,LINDERN,434,10.7350062000025,59.9358882999747,1,21
148,LODALEN BUSSTOPP,738,10.7779580000014,59.903452800004,37,12
149,LØRENPORTEN,2270,10.799817484162,59.9287929205107,26,20
150,LØRENVEIEN,402,10.7917407238475,59.9309019089449,39,21
151,MAILUNDVEIEN,565,10.7728203000005,59.930918099999,30,18
152,MAJORSTUA SKOLE,590,10.7136815999985,59.92943509999,28,40
153,MAJORSTUEN,413,10.716926000007,59.9290450000739,28,18
154,MAJORSTUEN T BANE,508,10.7146301505186,59.9298165151465,28,18
155,MAJORSTUVEIEN,473,10.7161949999959,59.9266970000141,28,9
156,MANDALLS GATE,522,10.7638147000035,59.9123468999811,6,10
157,MARCUS THRANES GATE,607,10.7585902748279,59.9327676228808,12,30
158,MARIENLYST,471,10.7217648491239,59.9324406900926,18,12
159,MARIENLYSTPARKEN,505,10.7234779999999,59.9321500000066,18,24
160,MELTZERS GATE,588,10.7184344999989,59.9180141000055,23,21
161,MONOLITTVEIEN,531,10.6811379999999,59.9359469999943,36,18
162,MUNKEDAMSVEIEN,615,10.7301061000024,59.9135227000027,0,21
163,MUNKEGATA,737,10.7678000000011,59.9082550000045,29,24
164,MUNKEGATA TRIKKESTOPP,737,10.7677999999957,59.9082549999645,29,24
165,MYRALØKKA ØST,525,10.7605813000048,59.9372050000127,9,15
166,MØLLEPARKEN,439,10.7559692999946,59.9283928000222,12,25
167,MØLLERGATA,477,10.7485318262864,59.9154009865089,8,22
168,NEDRE SLOTTSGATE,528,10.7436690000021,59.9132449999966,4,22
169,NORDRE GATE,585,10.754745265358,59.9211768883777,34,18
170,NORSK FOLKEMUSEUM,418,10.6868430000025,59.9076740000106,40,12
171,NYBRUA HOLDEPLASS,2334,10.757428972017,59.9165449260835,5,12
172,NYDALEN,482,10.7664829999995,59.9528680000045,9,18
173,NYLANDSVEIEN,734,10.7622812000028,59.9156602999823,6,22
174,OLAF RYES PLASS,551,10.7581820000119,59.9224249999971,34,35
175,OLAV KYRRES PLASS,428,10.6968953000009,59.9193337000006,25,24
176,OLAV VS GATE,515,10.7321210000005,59.9129179999991,0,22
177,OSCARS GATE,564,10.7272388000066,59.9224221999793,13,30
178,OSLO HANDELSGYMNASIUM,404,10.7202019999973,59.9143060000222,32,27
179,OSLO HOSPITAL,735,10.7673396675028,59.9031812321726,29,15
180,OSLO PLAZA,448,10.7544666695195,59.9121838642808,11,9
181,OSLOMET,400,10.7354280000026,59.9199269999842,14,25
182,OVER RÅDHUSGATA,571,10.7407129000031,59.9101207000139,4,21
183,PALÉHAVEN,599,10.7501099999954,59.9103310000253,33,48
184,PARKVEIEN,403,10.7304759999975,59.9217679999779,13,15
185,PILESTREDET,556,10.7296246000018,59.9262242000198,13,18
186,PILESTREDET 63,622,10.7313626999972,59.9238825999991,13,30
187,PILESTREDET STUDENTHUS,389,10.7342854000005,59.9205527999826,14,18
188,PROFESSOR ASCHEHOUGS PLASS,1023,10.7409710000006,59.9147672000092,42,15
189,RIDDERVOLDPLASS,587,10.7196414000038,59.9191421000212,23,22
190,RINGNES PARK,398,10.7595606739873,59.9284448337471,12,18
191,ROLF WICKSTRØMS VEI,601,10.7577241000016,59.9534114000056,9,20
192,ROSTOCKGATA,2315,10.7603105458075,59.9069125403848,3,18
193,RUSELØKKGÅRDEN,449,10.7263826513489,59.9135397964543,32,24
194,RÅDHUSBRYGGE 4,494,10.7303766000114,59.9108469000755,0,22
195,RÅDHUSBRYGGE 4,507,10.764162,59.919179,21,20
196,RÅDHUSBRYGGE 4,589,10.675096,59.898126,40,27
197,RÅDHUSGATA,481,10.736215000001,59.9109239999919,41,41
198,SAGA KINO,390,10.7328035876141,59.9141616152612,0,30
199,SAGENE BUSSHOLDEPLASS,407,10.7516480000002,59.9377429999888,7,15
200,SALT,616,10.7465752465554,59.9069147370953,33,15
201,SCHIVES GATE,613,10.7140551425732,59.9208961652953,23,27
202,SCHOUS PLASS,401,10.7606289999978,59.9202589999965,21,6
203,SCHOUS PLASS,423,10.7608040000073,59.9203349999511,21,19
204,SCHOUS PLASS TRIKKESTOPP,463,10.7594856999951,59.9207283999753,21,20
205,SENTRUM SCENE,437,10.7511267626203,59.9154714022142,11,24
206,SINSEN T BANE,614,10.7805615157459,59.9388485590909,27,24
207,SINSENVEIEN,415,10.781052999999,59.929542000013,27,12
208,SIRKUSTOMTA,497,10.774712000004,59.9192520000254,22,27
209,SJØLYST,445,10.6766599999983,59.9216729999882,36,18
210,SJØSIDEN VED FONTENEN,392,10.7516987509989,59.9101808526321,33,49
211,SJØSIDEN VED TRAPPEN,443,10.7519441561745,59.9101599791578,33,43
212,SJØSIDEN VEST,392,10.7513980753648,59.9101790459662,33,49
213,SJØSIDEN ØST,443,10.7518240000027,59.9101779999931,33,43
214,SKARPSNOPARKEN,595,10.701037,59.9148709999909,25,24
215,SKILLEBEKK,468,10.7101151377898,59.9127745260646,25,15
216,SKIPPERGATA,547,10.7481975999995,59.9112226999999,8,30
217,SKOVVEIEN,388,10.7163489999963,59.9163309000263,23,18
218,SKRÅNINGA,553,10.7474666999995,59.9139785999604,8,25
219,SKØYEN,572,10.6796401477286,59.9222602992885,36,40
220,SKØYEN STASJON,627,10.6787169448585,59.9226990058116,36,30
221,SLEMDALSVEIEN,386,10.7147779999971,59.9305960000151,28,22
222,SLOTTSPARKEN ØST,562,10.7321280000028,59.9174850000154,14,40
223,SOFIENBERGGATA,514,10.769989199996,59.9212062999807,22,12
224,SOFIENBERGPARKEN NORD,598,10.7661710000096,59.9232290000309,21,33
225,SOFIENBERGPARKEN NORDVEST,493,10.7615857999921,59.9243638999787,12,30
226,SOFIENBERGPARKEN SØR,455,10.7617503000019,59.9223370000204,21,12
227,SOGNSVEIEN,575,10.732526713676,59.9474484279991,17,30
228,SOMMERFRYDHAGEN,485,10.7760719999992,59.9114530000225,31,21
229,SOTAHJØRNET,610,10.7914482000028,59.9099822000115,24,20
230,SPIKERSUPPA VEST,430,10.7358450372291,59.9137577743222,41,42
231,SPIKERSUPPA ØST,625,10.7376630000051,59.9133599999837,41,42
232,ST HANSHAUGEN,422,10.7405420000046,59.9237029999754,38,22
233,ST HANSHAUGEN PARK NORD,470,10.7435338165643,59.9297870743363,15,15
234,ST HANSHAUGEN PARK SØR,432,10.7399089999981,59.9248209999916,38,12
235,ST HANSHAUGEN PARK VEST,391,10.7384633999943,59.9268706000307,38,20
236,ST OLAVS GATE,537,10.7386086025261,59.9179753075575,42,20
237,STAVANGERGATA,582,10.7507150356227,59.9411336514452,7,30
238,STENSGATA,382,10.7328390000022,59.9296034263734,1,9
239,STENSPARKEN,462,10.7309810000006,59.9271400000291,13,15
240,STJERNEPLASSEN,2330,10.7499587636505,59.9132331660657,11,15
241,STOCKFLETHS GATE,606,10.7521029000022,59.9339754000089,7,18
242,STORGATA,419,10.751824000002,59.9141252000087,11,22
243,STORO STORSENTER,397,10.7738268352529,59.9467053818685,16,42
244,STORTINGSTUNELLEN,1101,10.7373652775606,59.9106530180638,41,24
245,STUDENTERLUNDEN,387,10.7354530000011,59.9145859999786,41,15
246,STUDENTPARLAMENTET,469,10.7333569999972,59.9208519999947,14,30
247,SUHMS GATE,451,10.7261949999975,59.9294190000189,18,21
248,SUKKERBITEN,464,10.7536973816846,59.9055018399351,3,31
249,SØNDRE GATE,385,10.7578670000045,59.9186320000344,5,21
250,SØRVEST FOR SLOTTSPARKEN,533,10.7253156999994,59.9152619999958,32,12
251,TANNLEGEHØYSKOLEN,416,10.741474999999,59.9323830000103,15,15
252,THE HUB,2328,10.7509101858084,59.9125223702309,11,20
253,THERESES GATE,550,10.7310354999987,59.9261461999962,13,9
254,THOMAS HEFTYES PLASS,519,10.7039043557615,59.9185630930714,25,24
255,THUNE,429,10.6858800000018,59.9220800000083,36,21
256,TIEDEMANNSPARKEN,2340,10.7935394579026,59.9202469704875,39,25
257,TJUVHOLMEN,479,10.7225089999933,59.9094670000408,32,30
258,TORDENSKIOLDS GATE,573,10.7351457379318,59.9117838346376,41,20
259,TORGGATA,489,10.7515950601667,59.9159953088876,11,29
260,TORSHOVDALEN ØST,621,10.7775734184073,59.9328404874616,27,27
261,TORSHOVPARKEN VEST,488,10.7691500000001,59.9350700000006,16,24
262,TRELASTGATA,552,10.7625913570869,59.9079889028862,6,18
263,TRONDHEIMSVEIEN,457,10.7717192000038,59.9230577000206,22,10
264,TÅSEN SENTER,554,10.7511649999975,59.9526589999845,7,21
265,TÅSENLØKKA,517,10.748284800003,59.9433938999917,7,22
266,TØYEN SKOLE,408,10.7739769999954,59.9149429999524,20,15
267,TØYENBEKKEN,523,10.7617736000012,59.9115944999807,6,29
268,TØYENPARKEN,377,10.7775665000007,59.9156669999943,31,29
269,UELANDS GATE,399,10.7489861999952,59.9295449999832,2,36
270,ULLEVÅL SYKEHUS,502,10.7364515999957,59.9360307000418,1,34
271,ULLEVÅLSALLÉEN,466,10.7304799999988,59.9379130000015,17,15
272,ULLEVÅLSVEIEN,518,10.7395045000011,59.9246851999848,38,18
273,ULVEN TORG,2309,10.8116590644876,59.9249118237803,26,30
274,UNIVERSITETSGATA,2337,10.7378349902774,59.9159154337844,42,15
275,URANIENBORGPARKEN,417,10.720896000004,59.9224849999898,23,15
276,URANIENBORGVEIEN,535,10.7266340000025,59.9200420999598,13,27
277,VALKYRIEPLASSEN,459,10.7184199999995,59.9281319000043,28,12
278,VATERLANDSPARKEN,495,10.7573344426917,59.9135211256549,5,40
279,VATERLANDSPARKEN II,491,10.7573197999997,59.9136457999994,5,18
280,VESTKANTTORVET,436,10.713069099998,59.9244031000209,35,15
281,VIA VIKA,2329,10.7271708270872,59.9127128601449,0,15
282,VIPPETANGEN VEST,452,10.7406269999985,59.9039890000116,4,30
283,VIPPETANGEN ØST,441,10.741076999999,59.9039890000096,4,15
284,VOLVAT,524,10.7039868306922,59.9330900261859,19,21
285,VULKAN,442,10.7510100000061,59.9225099999586,34,17
286,VÅLERENGA,461,10.786856000002,59.9085760000087,24,21
287,VÅR FRELSERS GRAVLUND,384,10.7437646218726,59.9194404398474,42,18
288,VÅR FRELSERS GRAVLUND SØR,384,10.7438289999964,59.9194629999557,42,18
289,ØKERN PORTAL,2306,10.801890966655,59.930933959514,26,18
290,ØKERNVEIEN,605,10.7799159999995,59.916737599997,31,24
